--- 
venues: 
  - 
    city: San francisco
    name: 101 California Street Plaza
    latitude: "37.7935"
    zipcode: "94111"
    url: ''
    phone: ''
    longitude: "-122.3976"
    address: California St At Davis St
    state: CA
  - 
    city: San francisco
    name: 111 Minna Gallery
    latitude: "37.787278"
    zipcode: "94105"
    url: www.111minnagallery.com
    phone: 415-974-1719
    longitude: "-122.399438"
    address: 111 Minna St
    state: CA
  - 
    city: San francisco
    name: 12 Galaxies
    latitude: "37.756072"
    zipcode: "94110"
    url: www.12galaxies.com
    phone: 415-970-9777
    longitude: "-122.4186"
    address: 2565 Mission St
    state: CA
  - 
    city: San francisco
    name: 1275 Market Street Plaza
    latitude: "37.7787"
    zipcode: "94103"
    url: ''
    phone: ''
    longitude: "-122.4148"
    address: Market St At 8th St
    state: CA
  - 
    city: San francisco
    name: 13 Views
    latitude: "37.794685"
    zipcode: "94111"
    url: ''
    phone: ''
    longitude: "-122.399273"
    address: 5 Embarcadero Ctr
    state: CA
  - 
    city: San francisco
    name: 1596 Howard
    latitude: "37.771923"
    zipcode: "94103"
    url: ''
    phone: ''
    longitude: "-122.416934"
    address: 1596 Howard St
    state: CA
  - 
    city: Fairfax
    name: 19 Broadway
    latitude: "37.986853"
    zipcode: "94930"
    url: ''
    phone: ''
    longitude: "-122.587908"
    address: 17 Broadway Blvd
    state: CA
  - 
    city: Oakland
    name: 200 Grand
    latitude: "37.810574"
    zipcode: "94610"
    url: www.200grand.com
    phone: 510-482-0730
    longitude: "-122.260169"
    address: 200 Grand Ave
    state: CA
  - 
    city: Oakland
    name: 21 Grand
    latitude: "37.814303"
    zipcode: "94612"
    url: www.21grand.org
    phone: 510-444-7263
    longitude: "-122.265421"
    address: 416 25th St
    state: CA
  - 
    city: San francisco
    name: 222 Club
    latitude: "37.782901"
    zipcode: "94102"
    url: ''
    phone: ''
    longitude: "-122.415588"
    address: 222 Hyde St
    state: CA
  - 
    city: San francisco
    name: 26 Mix
    latitude: "37.748824"
    zipcode: "94110"
    url: www.26mix.com
    phone: 415-826-7378
    longitude: "-122.418304"
    address: 3024 Mission St
    state: CA
  - 
    city: San francisco
    name: 303 Second Street Building
    latitude: "37.7893"
    zipcode: "94105"
    url: ''
    phone: ''
    longitude: "-122.4014"
    address: 2nd St At Market St
    state: CA
  - 
    city: San francisco
    name: 330 Ritch
    latitude: "37.779172"
    zipcode: "94107"
    url: ''
    phone: ''
    longitude: "-122.39449"
    address: 330 Ritch St
    state: CA
  - 
    city: San francisco
    name: 425 Market
    latitude: "37.791406"
    zipcode: "94105"
    url: ''
    phone: ''
    longitude: "-122.39844"
    address: 425 Market St
    state: CA
  - 
    city: San francisco
    name: 450 Golden Gate
    latitude: "37.781435"
    zipcode: "94102"
    url: ''
    phone: ''
    longitude: "-122.418032"
    address: 450 Golden Gate Ave
    state: CA
  - 
    city: San francisco
    name: 509 Cultural Center
    latitude: "37.784517"
    zipcode: "94109"
    url: ''
    phone: ''
    longitude: "-122.414552"
    address: 509 Ellis St
    state: CA
  - 
    city: San francisco
    name: 540 Clement
    latitude: "37.783113"
    zipcode: "94118"
    url: ''
    phone: ''
    longitude: "-122.464667"
    address: 510 Clement St
    state: CA
  - 
    city: San francisco
    name: 555 California
    latitude: "37.7927"
    zipcode: "94104"
    url: ''
    phone: ''
    longitude: "-122.4044"
    address: California St At Kearny St
    state: CA
  - 
    city: Oakland
    name: 5th Amendment
    latitude: "37.81053"
    zipcode: "94610"
    url: ''
    phone: ''
    longitude: "-122.245158"
    address: 3255 Lakeshore Ave
    state: CA
  - 
    city: San francisco
    name: 699 Market
    latitude: "37.787673"
    zipcode: "94105"
    url: ''
    phone: ''
    longitude: "-122.403256"
    address: 699 Market St
    state: CA
  - 
    city: San francisco
    name: 715 Harrison
    latitude: "37.782191"
    zipcode: "94107"
    url: ''
    phone: ''
    longitude: "-122.397666"
    address: 715 Harrison St
    state: CA
  - 
    city: Berkeley
    name: 924 Gilman
    latitude: "37.879582"
    zipcode: "94710"
    url: ''
    phone: ''
    longitude: "-122.299623"
    address: 924 Gilman St
    state: CA
  - 
    city: San francisco
    name: Abbey Tavern
    latitude: "37.78122"
    zipcode: "94118"
    url: www.abbeytavern-sf.com
    phone: 415-221-7767
    longitude: "-122.46339"
    address: 4100 Geary Blvd
    state: CA
  - 
    city: San francisco
    name: Academy of Art College
    latitude: "37.787999"
    zipcode: "94102"
    url: ''
    phone: ''
    longitude: "-122.409699"
    address: 491 Post St
    state: CA
  - 
    city: San francisco
    name: The Accordian
    latitude: "37.741606"
    zipcode: "94124"
    url: ''
    phone: ''
    longitude: "-122.406588"
    address: 382 Bayshore Blvd
    state: CA
  - 
    city: Berkeley
    name: Acme Bar
    latitude: "37.86753"
    zipcode: "94702"
    url: ''
    phone: ''
    longitude: "-122.291428"
    address: 2115 San Pablo Ave
    state: CA
  - 
    city: Oakland
    name: African American Museum and Library at Oakland
    latitude: "37.806218"
    zipcode: "94612"
    url: www.oaklandlibrary.org
    phone: 510-637-0200
    longitude: "-122.276382"
    address: 659 14th St
    state: CA
  - 
    city: Oakland
    name: AK Press
    latitude: "37.813915"
    zipcode: "94612"
    url: ''
    phone: ''
    longitude: "-122.273791"
    address: 674a 23rd St
    state: CA
  - 
    city: Berkeley
    name: The Albatross Pub
    latitude: "37.871305"
    zipcode: "94702"
    url: ''
    phone: ''
    longitude: "-122.293056"
    address: 1822 San Pablo Ave
    state: CA
  - 
    city: Berkeley
    name: All Souls Episcopal Church
    latitude: "37.878675"
    zipcode: "94709"
    url: ''
    phone: ''
    longitude: "-122.266166"
    address: 2220 Cedar St
    state: CA
  - 
    city: San francisco
    name: Alpha Bar  &amp;  Lounge
    latitude: "37.781337"
    zipcode: "94118"
    url: ''
    phone: ''
    longitude: "-122.460537"
    address: 3848 Geary Blvd
    state: CA
  - 
    city: San francisco
    name: Amber
    latitude: "37.767837"
    zipcode: "94114"
    url: ''
    phone: ''
    longitude: "-122.429379"
    address: 714 14th St
    state: CA
  - 
    city: San francisco
    name: Amnesia
    latitude: "37.759292"
    zipcode: "94110"
    url: www.amnesiathebar.com
    phone: 415-970-0012
    longitude: "-122.421125"
    address: 853 Valencia St
    state: CA
  - 
    city: San francisco
    name: Amoeba Music
    latitude: "37.769156"
    zipcode: "94117"
    url: www.amoebamusic.com
    phone: 415-831-1200
    longitude: "-122.452741"
    address: 1855 Haight St
    state: CA
  - 
    city: San francisco
    name: An Bodhran
    latitude: "37.771906"
    zipcode: "94117"
    url: ''
    phone: ''
    longitude: "-122.433161"
    address: 668 Haight St
    state: CA
  - 
    city: San francisco
    name: Ana Mandara
    latitude: "37.806099"
    zipcode: "94109"
    url: ''
    phone: ''
    longitude: "-122.423499"
    address: 891 Beach St
    state: CA
  - 
    city: San francisco
    name: Annie&apos;s Social Club
    latitude: "37.779884"
    zipcode: "94107"
    url: www.thecherrybar.com
    phone: 415-974-1585
    longitude: "-122.403676"
    address: 917 Folsom St
    state: CA
  - 
    city: San francisco
    name: Anú
    latitude: "37.781727"
    zipcode: "94103"
    url: www.anu-bar.com
    phone: 415-543-3505
    longitude: "-122.409363"
    address: 43 6th St
    state: CA
  - 
    city: San francisco
    name: Argus Lounge
    latitude: "37.745853"
    zipcode: "94110"
    url: www.arguslounge.com
    phone: 415-824-1447
    longitude: "-122.419535"
    address: 3187 Mission St
    state: CA
  - 
    city: San francisco
    name: Arrow Bar
    latitude: "37.781944"
    zipcode: "94103"
    url: ''
    phone: ''
    longitude: "-122.410183"
    address: 10 6th St
    state: CA
  - 
    city: Berkeley
    name: Ashkenaz
    latitude: "37.880139"
    zipcode: "94702"
    url: ''
    phone: ''
    longitude: "-122.295498"
    address: 1317 San Pablo Ave
    state: CA
  - 
    city: San francisco
    name: AsiaSF
    latitude: "37.775009"
    zipcode: "94103"
    url: www.asiasf.com
    phone: 415-255-2742
    longitude: "-122.412943"
    address: 201 9th St
    state: CA
  - 
    city: San francisco
    name: Atlas Cafe
    latitude: "37.758963"
    zipcode: "94110"
    url: www.atlascafe.net
    phone: 415-648-1047
    longitude: "-122.411147"
    address: 3049 20th St
    state: CA
  - 
    city: San francisco
    name: The Attic
    latitude: "37.752337"
    zipcode: "94110"
    url: ''
    phone: ''
    longitude: "-122.419308"
    address: 3336 24th St
    state: CA
  - 
    city: San francisco
    name: Aunt Charlie&apos;s Lounge
    latitude: "37.782991"
    zipcode: "94102"
    url: www.auntcharlieslounge.com
    phone: 415-441-2922
    longitude: "-122.411362"
    address: 133 Turk St
    state: CA
  - 
    city: San francisco
    name: Avalon Ballroom
    latitude: "37.787739"
    zipcode: "94109"
    url: ''
    phone: ''
    longitude: "-122.421174"
    address: 1268 Sutter St
    state: CA
  - 
    city: San francisco
    name: Azul
    latitude: "37.789163"
    zipcode: "94108"
    url: www.azul-sf.com
    phone: 415-362-9750
    longitude: "-122.405473"
    address: 1 Tillman Pl
    state: CA
  - 
    city: San francisco
    name: Bacar
    latitude: "37.779163"
    zipcode: "94107"
    url: www.bacarsf.com
    phone: 415-904-4100
    longitude: "-122.395701"
    address: 448 Brannan St
    state: CA
  - 
    city: San francisco
    name: Badlands
    latitude: "37.760733"
    zipcode: "94114"
    url: www.sfbadlands.com
    phone: 415-626-9320
    longitude: "-122.435312"
    address: 4121 18th St
    state: CA
  - 
    city: San francisco
    name: Balazo 18 Gallery
    latitude: "37.762121"
    zipcode: "94110"
    url: www.balazogallery.com
    phone: 415-550-1108
    longitude: "-122.419259"
    address: 2183 Mission St
    state: CA
  - 
    city: San francisco
    name: Bamboo Hut
    latitude: "37.797907"
    zipcode: "94133"
    url: ''
    phone: ''
    longitude: "-122.405125"
    address: 479 Broadway
    state: CA
  - 
    city: San francisco
    name: Bambuddha Lounge
    latitude: "37.783143"
    zipcode: "94109"
    url: www.bambuddhalounge.com
    phone: 415-885-5088
    longitude: "-122.41766"
    address: 601 Eddy St
    state: CA
  - 
    city: San francisco
    name: The Bar on Castro
    latitude: "37.761695"
    zipcode: "94114"
    url: ''
    phone: ''
    longitude: "-122.435216"
    address: 456 Castro St
    state: CA
  - 
    city: San francisco
    name: Bas
    latitude: "37.80551"
    zipcode: "94133"
    url: ''
    phone: ''
    longitude: "-122.413183"
    address: 383 Bay St
    state: CA
  - 
    city: San francisco
    name: Bazaar Cafe
    latitude: "37.783928"
    zipcode: "94121"
    url: www.bazaarcafe.com
    phone: 415-831-5620
    longitude: "-122.481057"
    address: 5927 California St
    state: CA
  - 
    city: San francisco
    name: The Beat Lounge
    latitude: "37.797838"
    zipcode: "94133"
    url: ''
    phone: ''
    longitude: "-122.405647"
    address: 501 Broadway
    state: CA
  - 
    city: San francisco
    name: Beauty Bar
    latitude: "37.76035"
    zipcode: "94110"
    url: www.beautybar.com
    phone: 415-285-0323
    longitude: "-122.419043"
    address: 2299 Mission St
    state: CA
  - 
    city: Berkeley
    name: Beckett&apos;s Irish Pub
    latitude: "37.868099"
    zipcode: "94704"
    url: ''
    phone: ''
    longitude: "-122.267679"
    address: 2271 Shattuck Ave
    state: CA
  - 
    city: Oakland
    name: Bench  &amp;  Bar
    latitude: "37.810161"
    zipcode: "94612"
    url: ''
    phone: ''
    longitude: "-122.26683"
    address: 2111 Franklin St
    state: CA
  - 
    city: San francisco
    name: Bender&apos;s Bar  &amp;  Grill
    latitude: "37.760176"
    zipcode: "94110"
    url: www.bendersbar.com
    phone: 415-824-1800
    longitude: "-122.417259"
    address: 806 S Van Ness Ave
    state: CA
  - 
    city: Berkeley
    name: Berkeley Community Theater
    latitude: "37.868718"
    zipcode: "94704"
    url: ''
    phone: ''
    longitude: "-122.271969"
    address: 1930 Allston Way
    state: CA
  - 
    city: San francisco
    name: Beta Lounge
    latitude: "37.758443"
    zipcode: "94107"
    url: ''
    phone: ''
    longitude: "-122.387525"
    address: 1072 Illinois St
    state: CA
  - 
    city: San francisco
    name: Bethany United Methodist Church
    latitude: "37.748858"
    zipcode: "94114"
    url: ''
    phone: ''
    longitude: "-122.42953"
    address: 1268 Sanchez St
    state: CA
  - 
    city: San francisco
    name: Bigfoot Lodge
    latitude: "37.792866"
    zipcode: "94109"
    url: ''
    phone: ''
    longitude: "-122.420976"
    address: 1750 Polk St
    state: CA
  - 
    city: San francisco
    name: Bill Graham Civic Auditorium
    latitude: "37.778386"
    zipcode: "94102"
    url: www.billgrahamcivic.com
    phone: 415-974-4060
    longitude: "-122.418"
    address: 99 Grove St
    state: CA
  - 
    city: San francisco
    name: Bimbo&apos;s 365 Club
    latitude: "37.803727"
    zipcode: "94133"
    url: www.bimbos365club.com
    phone: 415-474-0365
    longitude: "-122.415357"
    address: 1025 Columbus Ave
    state: CA
  - 
    city: San francisco
    name: Bindlestiff Studio
    latitude: "37.780079"
    zipcode: "94103"
    url: ''
    phone: ''
    longitude: "-122.407246"
    address: 185 6th St
    state: CA
  - 
    city: San francisco
    name: Bird  &amp;  Beckett
    latitude: "37.734846"
    zipcode: "94131"
    url: ''
    phone: ''
    longitude: "-122.43399"
    address: 2788 Diamond St
    state: CA
  - 
    city: San francisco
    name: Biscuits  &amp;  Blues
    latitude: "37.787301"
    zipcode: "94102"
    url: www.biscuitsandblues.com
    phone: 415-292-BLUE (2583)
    longitude: "-122.410073"
    address: 401 Mason St
    state: CA
  - 
    city: Berkeley
    name: Bison Brewing Company
    latitude: "37.863459"
    zipcode: "94704"
    url: ''
    phone: ''
    longitude: "-122.258856"
    address: 2598 Telegraph Ave
    state: CA
  - 
    city: Hayward
    name: The Bistro
    latitude: "37.672798"
    zipcode: "94541"
    url: ''
    phone: ''
    longitude: "-122.082438"
    address: 1001 B St
    state: CA
  - 
    city: San francisco
    name: Blackthorn Tavern
    latitude: "37.764137"
    zipcode: "94122"
    url: ''
    phone: ''
    longitude: "-122.466731"
    address: 834 Irving St
    state: CA
  - 
    city: Berkeley
    name: Blake&apos;s on Telegraph
    latitude: "37.86747"
    zipcode: "94704"
    url: ''
    phone: ''
    longitude: "-122.258748"
    address: 2367 Telegraph Ave
    state: CA
  - 
    city: San francisco
    name: The Blarney Stone
    latitude: "37.780163"
    zipcode: "94121"
    url: ''
    phone: ''
    longitude: "-122.479762"
    address: 5625 Geary Blvd
    state: CA
  - 
    city: San francisco
    name: Bliss Bar
    latitude: "37.751506"
    zipcode: "94114"
    url: ''
    phone: ''
    longitude: "-122.432568"
    address: 4026 24th St
    state: CA
  - 
    city: San francisco
    name: Blondie&apos;s Bar  &amp;  No Grill
    latitude: "37.764215"
    zipcode: "94110"
    url: www.blondiesbar.com
    phone: 415-864-2419
    longitude: "-122.421987"
    address: 540 Valencia St
    state: CA
  - 
    city: San francisco
    name: Blue Cube
    latitude: "37.783805"
    zipcode: "94102"
    url: www.bluecubesf.com
    phone: 415-259-8629
    longitude: "-122.409003"
    address: 34 Mason St
    state: CA
  - 
    city: San francisco
    name: The Blue Maguey
    latitude: "37.763123"
    zipcode: "94107"
    url: ''
    phone: ''
    longitude: "-122.390889"
    address: 590 Minnesota St
    state: CA
  - 
    city: Burlingame
    name: Blush
    latitude: "37.579302"
    zipcode: "94010"
    url: ''
    phone: ''
    longitude: "-122.344868"
    address: 261 California Dr
    state: CA
  - 
    city: San francisco
    name: Boedekker Park
    latitude: "37.7839"
    zipcode: "94102"
    url: ''
    phone: ''
    longitude: "-122.4126"
    address: Jones St At Eddy St
    state: CA
  - 
    city: San francisco
    name: Boom Boom Room
    latitude: "37.784628"
    zipcode: "94115"
    url: www.boomboomblues.com
    phone: 415-673-8000
    longitude: "-122.433191"
    address: 1601 Fillmore St
    state: CA
  - 
    city: San francisco
    name: Bottom of the Hill
    latitude: "37.765024"
    zipcode: "94107"
    url: www.bottomofthehill.com
    phone: 415-621-4455
    longitude: "-122.396168"
    address: 1233 17th St
    state: CA
  - 
    city: San francisco
    name: Brainwash
    latitude: "37.776321"
    zipcode: "94103"
    url: www.brainwash.com
    phone: 415-861-3663
    longitude: "-122.408652"
    address: 1122 Folsom St
    state: CA
  - 
    city: San francisco
    name: Brazilian Cultural Center
    latitude: "37.755318"
    zipcode: "94110"
    url: ''
    phone: ''
    longitude: "-122.419219"
    address: 3221 22nd St
    state: CA
  - 
    city: San francisco
    name: Broadway Showgirls
    latitude: "37.798301"
    zipcode: "94133"
    url: www.showgirlssf.com
    phone: 415-391-2800
    longitude: "-122.404134"
    address: 412 Broadway
    state: CA
  - 
    city: San francisco
    name: Broadway Studios
    latitude: "37.797999"
    zipcode: "94133"
    url: www.broadwaystudios.com
    phone: 415-291-0333
    longitude: "-122.404353"
    address: 435 Broadway
    state: CA
  - 
    city: San francisco
    name: Bruno&apos;s
    latitude: "37.758884"
    zipcode: "94110"
    url: www.brunoslive.com
    phone: 415-648-7701
    longitude: "-122.41886"
    address: 2389 Mission St
    state: CA
  - 
    city: San francisco
    name: Bubble Lounge
    latitude: "37.79609"
    zipcode: "94111"
    url: www.bubblelounge.com
    phone: 415-434-4204
    longitude: "-122.40326"
    address: 714 Montgomery St
    state: CA
  - 
    city: San francisco
    name: Buriel Clay Theater
    latitude: "37.778116"
    zipcode: "94102"
    url: ''
    phone: ''
    longitude: "-122.429224"
    address: 762 Fulton St
    state: CA
  - 
    city: San francisco
    name: Butter
    latitude: "37.771108"
    zipcode: "94103"
    url: www.smoothasbutter.com
    phone: 415-863-5964
    longitude: "-122.41332"
    address: 354 11th St
    state: CA
  - 
    city: San francisco
    name: Buzz 9
    latitude: "37.777295"
    zipcode: "94103"
    url: ''
    phone: ''
    longitude: "-122.41262"
    address: 139 8th St
    state: CA
  - 
    city: San francisco
    name: The Cafe
    latitude: "37.763066"
    zipcode: "94114"
    url: www.CafeSF.com
    phone: 415-861-3846
    longitude: "-122.434235"
    address: 2367 Market St
    state: CA
  - 
    city: San francisco
    name: Cafe Anju
    latitude: "37.78756"
    zipcode: "94102"
    url: www.anjuzen.com
    phone: 415-724-8675
    longitude: "-122.411454"
    address: 550 Taylor St
    state: CA
  - 
    city: San francisco
    name: Café Arguello
    latitude: "37.751689"
    zipcode: "94110"
    url: ''
    phone: ''
    longitude: "-122.4186"
    address: 2832 Mission St
    state: CA
  - 
    city: San francisco
    name: Cafe Claude
    latitude: "37.789952"
    zipcode: "94108"
    url: www.cafeclaude.com
    phone: 415-392-3505
    longitude: "-122.404407"
    address: 7 Claude Ln
    state: CA
  - 
    city: San francisco
    name: Cafe Cocomo
    latitude: "37.762304"
    zipcode: "94107"
    url: www.cafecocomo.com
    phone: 415-824-6910
    longitude: "-122.391826"
    address: 650 Indiana St
    state: CA
  - 
    city: San francisco
    name: Cafe de la Presse
    latitude: "37.790988"
    zipcode: "94104"
    url: ''
    phone: ''
    longitude: "-122.403203"
    address: 352 Bush St
    state: CA
  - 
    city: San francisco
    name: Café Du Nord
    latitude: "37.76652"
    zipcode: "94114"
    url: www.cafedunord.com
    phone: 415-861-5016
    longitude: "-122.430385"
    address: 2170 Market St
    state: CA
  - 
    city: San francisco
    name: Cafe Flore
    latitude: "37.764408"
    zipcode: "94114"
    url: ''
    phone: ''
    longitude: "-122.433076"
    address: 2298 Market St
    state: CA
  - 
    city: San francisco
    name: Cafe Franco
    latitude: "37.80383"
    zipcode: "94123"
    url: ''
    phone: ''
    longitude: "-122.428169"
    address: 240 Fort Mason
    state: CA
  - 
    city: San francisco
    name: Cafe International
    latitude: "37.772202"
    zipcode: "94117"
    url: ''
    phone: ''
    longitude: "-122.430798"
    address: 508 Haight St
    state: CA
  - 
    city: San francisco
    name: Cafe Mars
    latitude: "37.773317"
    zipcode: "94103"
    url: ''
    phone: ''
    longitude: "-122.403172"
    address: 798 Brannan St
    state: CA
  - 
    city: San francisco
    name: Cafe Neon
    latitude: "37.777242"
    zipcode: "94115"
    url: ''
    phone: ''
    longitude: "-122.441855"
    address: 1801 Mcallister St
    state: CA
  - 
    city: Oakland
    name: Cafe Van Kleef
    latitude: "37.806342"
    zipcode: "94612"
    url: ''
    phone: ''
    longitude: "-122.270539"
    address: 1621 Telegraph Ave
    state: CA